{
  "regions": [
    {
      "name": "Ahvenmaa",
      "regionDescription": "The coat of arms of Åland was originally to be granted to the Swedish island province of Öland in 1560. ",
      "img": "Ahvenmaa",
      "src": "/src/assets/img/Ahvenanmaa/Ahvenanmaa.png",
      "alt": "white crown on top, a yellow elk on blue background",
      "location": "/src/assets/img/Ahvenanmaa/ahvenmaa-location.png",
      "locationAlt": "",
      "images": [
        {
          "municipality": "Brändö",
          "url": "/src/assets/img/Ahvenanmaa/Brändö.png",
          "alt": "A flying white gull on the red background on top of a shield, lower a red fish on white background"
        },
        {
          "municipality": "Eckerö",
          "url": "/src/assets/img/Ahvenanmaa/Eckerö.png",
          "alt": "A red boat with sail on white background"
        },
        {
          "municipality": "Finström",
          "url": "/src/assets/img/Ahvenanmaa/Finström.png",
          "alt": "A golden tree on red background"
        },
        {
          "municipality": "Föglö",
          "url": "/src/assets/img/Ahvenanmaa/Föglö.png",
          "alt": "Three golden ducks flying high on blue background"
        },
        {
          "municipality": "Geta",
          "url": "/src/assets/img/Ahvenanmaa/Geta.png",
          "alt": "A golden goat on blue background"
        },
        {
          "municipality": "Hammarland",
          "url": "/src/assets/img/Ahvenanmaa/Hammarland.png",
          "alt": "A golden sail boat on blue background"
        },
        {
          "municipality": "Jomala",
          "url": "/src/assets/img/Ahvenanmaa/Jomala.png",
          "alt": ""
        },
        {
          "municipality": "Kökar",
          "url": "/src/assets/img/Ahvenanmaa/Kökar.png",
          "alt": ""
        },
        {
          "municipality": "Kumlinge",
          "url": "/src/assets/img/Ahvenanmaa/Kumlinge.png",
          "alt": ""
        },
        {
          "municipality": "Lemland",
          "url": "/src/assets/img/Ahvenanmaa/Lemland.png",
          "alt": ""
        },
        {
          "municipality": "Lumparland",
          "url": "/src/assets/img/Ahvenanmaa/Lumparland.png",
          "alt": ""
        },
        {
          "municipality": "Maarianhamina",
          "url": "/src/assets/img/Ahvenanmaa/Maarianhamina.png",
          "alt": ""
        },
        {
          "municipality": "Saltvik",
          "url": "/src/assets/img/Ahvenanmaa/Saltvik.png",
          "alt": ""
        },
        {
          "municipality": "Sottunga",
          "url": "/src/assets/img/Ahvenanmaa/Sottunga.png",
          "alt": ""
        },
        {
          "municipality": "Sund",
          "url": "/src/assets/img/Ahvenanmaa/Sund.png",
          "alt": ""
        },
        {
          "municipality": "Värdö",
          "url": "/src/assets/img/Ahvenanmaa/Värdö.png",
          "alt": ""
        }
      ]
    },
    {
      "name": "Etelä-Karjala",
      "img": "Etelä-Karjala",
      "src": "/src/assets/img/Etelä-Karjala/Etelä-Karjala.png",
      "alt": "",
      "location": "/src/assets/img/Etelä-Karjala/etelä-karjala-location.png",
      "locationAlt": "",
      "images": [
        {
          "municipality": "Imatra",
          "url": "/src/assets/img/Etelä-Karjala/Imatra.png",
          "alt": ""
        },
        {
          "municipality": "Lappeenranta",
          "url": "/src/assets/img/Etelä-Karjala/Lappeenranta.png",
          "alt": ""
        },
        {
          "municipality": "Lemi",
          "url": "/src/assets/img/Etelä-Karjala/Lemi.png",
          "alt": ""
        },
        {
          "municipality": "Luumäki",
          "url": "/src/assets/img/Etelä-Karjala/Luumäki.png",
          "alt": ""
        },
        {
          "municipality": "Parikkala",
          "url": "/src/assets/img/Etelä-Karjala/Parikkala.png",
          "alt": ""
        },
        {
          "municipality": "Rautjärvi",
          "url": "/src/assets/img/Etelä-Karjala/Rautijärvi.png",
          "alt": ""
        },
        {
          "municipality": "Ruokolahti",
          "url": "/src/assets/img/Etelä-Karjala/Imatra.png",
          "alt": ""
        },
        {
          "municipality": "Savitaipale",
          "url": "/src/assets/img/Etelä-Karjala/Savitaipale.png",
          "alt": ""
        },
        {
          "municipality": "Taipalsaari",
          "url": "/src/assets/img/Etelä-Karjala/Taipalsaari.png",
          "alt": ""
        }
      ]
    },
    {
      "name": "Etelä-Pohjanmaa",
      "img": "Etelä-Pohjanmaa",
      "src": "/src/assets/img/Etelä-Pohjanmaa/Etelä-Pohjanmaa.png",
      "alt": "",
      "location": "/src/assets/img/Etelä-Pohjanmaa/etelä-pohjanmaa-location.png",
      "locationAlt": "",
      "images": [
        {
          "municipality": "Ähtäri",
          "url": "/src/assets/img/Etelä-Pohjanmaa/Ähtäri.png",
          "alt": ""
        },
        {
          "municipality": "Alajärvi",
          "url": "/src/assets/img/Etelä-Pohjanmaa/Alajärvi.png",
          "alt": ""
        },
        {
          "municipality": "Evijärvi",
          "url": "/src/assets/img/Etelä-Pohjanmaa/Evijärvi.png",
          "alt": ""
        },
        {
          "municipality": "Ilmajoki",
          "url": "/src/assets/img/Etelä-Pohjanmaa/Ilmajoki.png",
          "alt": ""
        },
        {
          "municipality": "Isojoki",
          "url": "/src/assets/img/Etelä-Pohjanmaa/Isojoki.png",
          "alt": ""
        },
        {
          "municipality": "Isokyrö",
          "url": "/src/assets/img/Etelä-Pohjanmaa/Isokyrö.png",
          "alt": ""
        },
        {
          "municipality": "Karijoki",
          "url": "/src/assets/img/Etelä-Pohjanmaa/Karijoki.png",
          "alt": ""
        },
        {
          "municipality": "Kauhajoki",
          "url": "/src/assets/img/Etelä-Pohjanmaa/Kauhajoki.png",
          "alt": ""
        },
        {
          "municipality": "Kauhava",
          "url": "/src/assets/img/Etelä-Pohjanmaa/Kuortane.png",
          "alt": ""
        },
        {
          "municipality": "Kuortane",
          "url": "/src/assets/img/Etelä-Pohjanmaa/Kuortane.png",
          "alt": ""
        },
        {
          "municipality": "Kurikka",
          "url": "/src/assets/img/Etelä-Pohjanmaa/Kurikka.png",
          "alt": ""
        },
        {
          "municipality": "Lappajärvi",
          "url": "/src/assets/img/Etelä-Pohjanmaa/Lappajärvi.png",
          "alt": ""
        },
        {
          "municipality": "Lapua",
          "url": "/src/assets/img/Etelä-Pohjanmaa/Lapua.png",
          "alt": ""
        },
        {
          "municipality": "Seinäjoki",
          "url": "/src/assets/img/Etelä-Pohjanmaa/Seinäjoki.png",
          "alt": ""
        },
        {
          "municipality": "Soini",
          "url": "/src/assets/img/Etelä-Pohjanmaa/Soini.png",
          "alt": ""
        },
        {
          "municipality": "Teuva",
          "url": "/src/assets/img/Etelä-Pohjanmaa/Teuva.png",
          "alt": ""
        },
        {
          "municipality": "Töysä",
          "url": "/src/assets/img/Etelä-Pohjanmaa/Töysä.png",
          "alt": ""
        },
        {
          "municipality": "Vimpeli",
          "url": "/src/assets/img/Etelä-Pohjanmaa/Vimpeli.png",
          "alt": ""
        }
      ]
    },
    {
      "name": "Etelä-Savo",
      "img": "Etelä-Savo",
      "src": "/src/assets/img/Etelä-Savo/Etelä-Savo.png",
      "alt": "",
      "location": "/src/assets/img/Etelä-Savo/etelä-savo-location.png",
      "locationAlt": "",
      "images": [
        {
          "municipality": "Enonkoski",
          "url": "/src/assets/img/Etelä-Savo/Enonkoski.png",
          "alt": ""
        },
        {
          "municipality": "Hirvensalmi",
          "url": "/src/assets/img/Etelä-Savo/Hirvensalmi.png",
          "alt": ""
        },
        {
          "municipality": "Juva",
          "url": "/src/assets/img/Etelä-Savo/Juva.png",
          "alt": ""
        },
        {
          "municipality": "Kangasniemi",
          "url": "/src/assets/img/Etelä-Savo/Kangasniemi.png",
          "alt": ""
        },
        {
          "municipality": "Mäntyharju",
          "url": "/src/assets/img/Etelä-Savo/Mäntyharju.png",
          "alt": ""
        },
        {
          "municipality": "Mikkeli",
          "url": "/src/assets/img/Etelä-Savo/Mikkeli.png",
          "alt": ""
        },
        {
          "municipality": "Pertunmaa",
          "url": "/src/assets/img/Etelä-Savo/Pertunmaa.png",
          "alt": ""
        },
        {
          "municipality": "Pieksämäki",
          "url": "/src/assets/img/Etelä-Savo/Pieksämäki.png",
          "alt": ""
        },
        {
          "municipality": "Puumala",
          "url": "/src/assets/img/Etelä-Savo/Puumala.png",
          "alt": ""
        },
        {
          "municipality": "Rantasalmi",
          "url": "/src/assets/img/Etelä-Savo/Rantasalmi.png",
          "alt": ""
        },
        {
          "municipality": "Savonlinna",
          "url": "/src/assets/img/Etelä-Savo/Savonlinna.png",
          "alt": ""
        },
        {
          "municipality": "Sulkava",
          "url": "/src/assets/img/Etelä-Savo/Sulkava.png",
          "alt": ""
        }
      ]
    },
    {
      "name": "Kainuu",
      "img": "Kainuu",
      "src": "/src/assets/img/Kainuu/Kainuu.png",
      "alt": "",
      "location": "/src/assets/img/Kainuu/kainuu-location.png",
      "locationAlt": "",
      "images": [
        {
          "municipality": "Hyrynsalmi",
          "url": "/src/assets/img/Kainuu/Hyrynsalmi.png",
          "alt": ""
        },
        {
          "municipality": "Kajaani",
          "url": "/src/assets/img/Kainuu/Kajaani.png",
          "alt": ""
        },
        {
          "municipality": "Kuhmo",
          "url": "/src/assets/img/Kainuu/Kuhmo.png",
          "alt": ""
        },
        {
          "municipality": "Paltamo",
          "url": "/src/assets/img/Kainuu/Paltamo.png",
          "alt": ""
        },
        {
          "municipality": "Puolanka",
          "url": "/src/assets/img/Kainuu/Puolanka.png",
          "alt": ""
        },
        {
          "municipality": "Ristijarvi",
          "url": "/src/assets/img/Kainuu/Ristijarvi.png",
          "alt": ""
        },
        {
          "municipality": "Sotkamo",
          "url": "/src/assets/img/Kainuu/Sotkamo.png",
          "alt": ""
        },
        {
          "municipality": "Suomussalmi",
          "url": "/src/assets/img/Kainuu/Suomussalmi.png",
          "alt": ""
        }
      ]
    },
    {
      "name": "Kanta-Häme",
      "img": "Kanta-Häme",
      "src": "/src/assets/img/Kanta-Häme/Kanta-Häme.png",
      "alt": "",
      "location": "/src/assets/img/Kanta-Häme/kanta-häme-location.png",
      "locationAlt": "",
      "images": [
        {
          "municipality": "Forssa",
          "url": "/src/assets/img/Kanta-Häme/Forssa.png",
          "alt": ""
        },
        {
          "municipality": "Hämeenlinna",
          "url": "/src/assets/img/Kanta-Häme/Hämeenlinna.png",
          "alt": ""
        },
        {
          "municipality": "Hattula",
          "url": "/src/assets/img/Kanta-Häme/Hattula.png",
          "alt": ""
        },
        {
          "municipality": "Hausjärvi",
          "url": "/src/assets/img/Kanta-Häme/Hausjärvi.png",
          "alt": ""
        },
        {
          "municipality": "Humppila",
          "url": "/src/assets/img/Kanta-Häme/Humppila.png",
          "alt": ""
        },
        {
          "municipality": "Janakkala",
          "url": "/src/assets/img/Kanta-Häme/Janakkala.png",
          "alt": ""
        },
        {
          "municipality": "Jokioinen",
          "url": "/src/assets/img/Kanta-Häme/Jokioinen.png",
          "alt": ""
        },
        {
          "municipality": "Loppi",
          "url": "/src/assets/img/Kanta-Häme/Loppi.png",
          "alt": ""
        },
        {
          "municipality": "Riihimäki",
          "url": "/src/assets/img/Kanta-Häme/Riihimäki.png",
          "alt": ""
        },
        {
          "municipality": "Tammela",
          "url": "/src/assets/img/Kanta-Häme/Tammela.png",
          "alt": ""
        },
        {
          "municipality": "Ypäjä",
          "url": "/src/assets/img/Kanta-Häme/Ypäjä.png",
          "alt": ""
        }
      ]
    },
    {
      "name": "Keski-Pohjanmaa",
      "img": "Keski-Pohjanmaa",
      "src": "/src/assets/img/Keski-Pohjanmaa/Keski-Pohjanmaa.png",
      "alt": "",
      "location": "/src/assets/img/Keski-Pohjanmaa/keski-pohjanmaa-location.png",
      "locationAlt": "",
      "images": [
        {
          "municipality": "Halsua",
          "url": "/src/assets/img/Keski-Pohjanmaa/Halsua.png",
          "alt": ""
        },
        {
          "municipality": "Kannus",
          "url": "/src/assets/img/Keski-Pohjanmaa/Kannus.png",
          "alt": ""
        },
        {
          "municipality": "Kaustinen",
          "url": "/src/assets/img/Keski-Pohjanmaa/Kaustinen.png",
          "alt": ""
        },
        {
          "municipality": "Kokkola",
          "url": "/src/assets/img/Keski-Pohjanmaa/Kokkola.png",
          "alt": ""
        },
        {
          "municipality": "Lestijärvi",
          "url": "/src/assets/img/Keski-Pohjanmaa/Lestijärvi.png",
          "alt": ""
        },
        {
          "municipality": "Perho",
          "url": "/src/assets/img/Keski-Pohjanmaa/Perho.png",
          "alt": ""
        },
        {
          "municipality": "Toholampi",
          "url": "/src/assets/img/Keski-Pohjanmaa/Toholampi.png",
          "alt": ""
        },
        {
          "municipality": "Veteli",
          "url": "/src/assets/img/Keski-Pohjanmaa/Veteli.png",
          "alt": ""
        }
      ]
    },
    {
      "name": "Keski-Suomi",
      "img": "Keski-Suomi",
      "src": "/src/assets/img/Keski-Suomi/Keski-Suomi.png",
      "alt": "",
      "location": "/src/assets/img/Keski-Suomi/keski-suomi-location.png",
      "locationAlt": "",
      "images": [
        {
          "municipality": "Äänekoski",
          "url": "/src/assets/img/Keski-Suomi/Äänekoski.png",
          "alt": ""
        },
        {
          "municipality": "Hankasalmi",
          "url": "/src/assets/img/Keski-Suomi/Hankasalmi.png",
          "alt": ""
        },
        {
          "municipality": "Jämsänkoski",
          "url": "/src/assets/img/Keski-Suomi/Jämsänkoski.png",
          "alt": ""
        },
        {
          "municipality": "Joutsa",
          "url": "/src/assets/img/Keski-Suomi/Joutsa.png",
          "alt": ""
        },
        {
          "municipality": "Jyväskylä",
          "url": "/src/assets/img/Keski-Suomi/Jyväskylä.png",
          "alt": ""
        },
        {
          "municipality": "Kannonkoski",
          "url": "/src/assets/img/Keski-Suomi/Kannonkoski.png",
          "alt": ""
        },
        {
          "municipality": "Karstula",
          "url": "/src/assets/img/Keski-Suomi/Karstula.png",
          "alt": ""
        },
        {
          "municipality": "Keuruu",
          "url": "/src/assets/img/Keski-Suomi/Keuruu.png",
          "alt": ""
        },
        {
          "municipality": "Kinnula",
          "url": "/src/assets/img/Keski-Suomi/Kinnula.png",
          "alt": ""
        },
        {
          "municipality": "Kivijärvi",
          "url": "/src/assets/img/Keski-Suomi/Kivijärvi.png",
          "alt": ""
        },
        {
          "municipality": "Konnevesi",
          "url": "/src/assets/img/Keski-Suomi/Konnevesi.png",
          "alt": ""
        },
        {
          "municipality": "Kyyjärvi",
          "url": "/src/assets/img/Keski-Suomi/Kyyjärvi.png",
          "alt": ""
        },
        {
          "municipality": "Laukaa",
          "url": "/src/assets/img/Keski-Suomi/Laukaa.png",
          "alt": ""
        },
        {
          "municipality": "Luhanka",
          "url": "/src/assets/img/Keski-Suomi/Luhanka.png",
          "alt": ""
        },
        {
          "municipality": "Multia",
          "url": "/src/assets/img/Keski-Suomi/Multia.png",
          "alt": ""
        },
        {
          "municipality": "Muurame",
          "url": "/src/assets/img/Keski-Suomi/Muurame.png",
          "alt": ""
        },
        {
          "municipality": "Petäjävesi",
          "url": "/src/assets/img/Keski-Suomi/Petäjävesi.png",
          "alt": ""
        },
        {
          "municipality": "Pihtipudas",
          "url": "/src/assets/img/Keski-Suomi/Pihtipudas.png",
          "alt": ""
        },
        {
          "municipality": "Saarijärvi",
          "url": "/src/assets/img/Keski-Suomi/Saarijärvi.png",
          "alt": ""
        },
        {
          "municipality": "Toivakka",
          "url": "/src/assets/img/Keski-Suomi/Toivakka.png",
          "alt": ""
        },
        {
          "municipality": "Uurainen",
          "url": "/src/assets/img/Keski-Suomi/Uurainen.png",
          "alt": ""
        },
        {
          "municipality": "Viitasaari",
          "url": "/src/assets/img/Keski-Suomi/Viitasaari.png",
          "alt": ""
        }
      ]
    },
    {
      "name": "Kymenlaakso",
      "img": "Kymenlaakso",
      "src": "/src/assets/img/Kymenlaakso/Kymenlaakso.png",
      "alt": "",
      "location": "/src/assets/img/Kymenlaakso/kymenlaakso-location.png",
      "locationAlt": "",
      "images": [
        {
          "municipality": "Hamina",
          "url": "/src/assets/img/Kymenlaakso/Hamina.png",
          "alt": ""
        },
        {
          "municipality": "Kotka",
          "url": "/src/assets/img/Kymenlaakso/Kotka.png",
          "alt": ""
        },
        {
          "municipality": "Kouvola",
          "url": "/src/assets/img/Kymenlaakso/Kouvola.png",
          "alt": ""
        },
        {
          "municipality": "Miehikkala",
          "url": "/src/assets/img/Kymenlaakso/Miehikkala.png",
          "alt": ""
        },
        {
          "municipality": "Pyhtää",
          "url": "/src/assets/img/Kymenlaakso/Pyhtää.png",
          "alt": ""
        },
        {
          "municipality": "Virolahti",
          "url": "/src/assets/img/Kymenlaakso/Virolahti.png",
          "alt": ""
        }
      ]
    },
    {
      "name": "Lapi",
      "img": "Lapi",
      "src": "/src/assets/img/Lapland/Lapi.png",
      "alt": "",
      "location": "/src/assets/img/Lapi/lapi-location.png",
      "locationAlt": "",
      "images": [
        {
          "municipality": "Enontekiö",
          "url": "/src/assets/img/Lapland/Enontekiö.png",
          "alt": ""
        },
        {
          "municipality": "Inari",
          "url": "/src/assets/img/Lapland/Inari.png",
          "alt": ""
        },
        {
          "municipality": "Kemi",
          "url": "/src/assets/img/Lapland/Kemi.png",
          "alt": ""
        },
        {
          "municipality": "Keminmaa",
          "url": "/src/assets/img/Lapland/Keminmaa.png",
          "alt": ""
        },
        {
          "municipality": "Kittilä",
          "url": "/src/assets/img/Lapland/Kittilä.png",
          "alt": ""
        },
        {
          "municipality": "Kolari",
          "url": "/src/assets/img/Lapland/Kolari.png",
          "alt": ""
        },
        {
          "municipality": "Muonio",
          "url": "/src/assets/img/Lapland/Muonio.png",
          "alt": ""
        },
        {
          "municipality": "Pelkosenniemi",
          "url": "/src/assets/img/Lapland/Pelkosenniemi.png",
          "alt": ""
        },
        {
          "municipality": "Pellon",
          "url": "/src/assets/img/Lapland/Pellon.png",
          "alt": ""
        },
        {
          "municipality": "Posio",
          "url": "/src/assets/img/Lapland/Posio.png",
          "alt": ""
        },
        {
          "municipality": "Ranua",
          "url": "/src/assets/img/Lapland/Ranua.png",
          "alt": ""
        },
        {
          "municipality": "Rovaniemi",
          "url": "/src/assets/img/Lapland/Rovaniemi.png",
          "alt": ""
        },
        {
          "municipality": "Salla",
          "url": "/src/assets/img/Lapland/Salla.png",
          "alt": ""
        },
        {
          "municipality": "Savukoski",
          "url": "/src/assets/img/Lapland/Savukoski.png",
          "alt": ""
        },
        {
          "municipality": "Simo",
          "url": "/src/assets/img/Lapland/Simo.png",
          "alt": ""
        },
        {
          "municipality": "Sodankyla",
          "url": "/src/assets/img/Lapland/Sodankyla.png",
          "alt": ""
        },
        {
          "municipality": "Tervola",
          "url": "/src/assets/img/Lapland/Tervola.png",
          "alt": ""
        },
        {
          "municipality": "Tornio",
          "url": "/src/assets/img/Lapland/Tornio.png",
          "alt": ""
        },
        {
          "municipality": "Utsjoki",
          "url": "/src/assets/img/Lapland/Utsjoki.png",
          "alt": ""
        },
        {
          "municipality": "Ylitornio",
          "url": "/src/assets/img/Lapland/Ylitornio.png",
          "alt": ""
        }
      ]
    },
    {
      "name": "Päijät-Häme",
      "img": "Päijät-Häme",
      "src": "/src/assets/img/Päijät-Häme/Päijät-Häme.png",
      "alt": "",
      "location": "/src/assets/img/Päijät-Häme/päijät-häme-location.png",
      "locationAlt": "",
      "images": [
        {
          "municipality": "Asikkala",
          "url": "/src/assets/img/Päijät-Häme/Asikkala.png",
          "alt": ""
        },
        {
          "municipality": "Hartola",
          "url": "/src/assets/img/Päijät-Häme/Hartola.png",
          "alt": ""
        },
        {
          "municipality": "Heinola",
          "url": "/src/assets/img/Päijät-Häme/Heinola.png",
          "alt": ""
        },
        {
          "municipality": "Iitti",
          "url": "/src/assets/img/Päijät-Häme/Iitti.png",
          "alt": ""
        },
        {
          "municipality": "Kärkölä",
          "url": "/src/assets/img/Päijät-Häme/Kärkölä.png",
          "alt": ""
        },
        {
          "municipality": "Lahti",
          "url": "/src/assets/img/Päijät-Häme/Lahti.png",
          "alt": ""
        },
        {
          "municipality": "Orimattila",
          "url": "/src/assets/img/Päijät-Häme/Orimattila.png",
          "alt": ""
        },
        {
          "municipality": "Padasjoki",
          "url": "/src/assets/img/Päijät-Häme/Padasjoki.png",
          "alt": ""
        },
        {
          "municipality": "Sysmä",
          "url": "/src/assets/img/Päijät-Häme/Sysmä.png",
          "alt": ""
        }
      ]
    },
    {
      "name": "Pirkanmaa",
      "img": "Pirkanmaa",
      "src": "/src/assets/img/Pirkanmaa/Pirkanmaa.png",
      "alt": "",
      "location": "/src/assets/img/Pirkanmaa/pirkanmaa-location.png",
      "locationAlt": "",
      "images": [
        {
          "municipality": "Akaa",
          "url": "/src/assets/img/Pirkanmaa/Akaa.png",
          "alt": ""
        },
        {
          "municipality": "Hämeenkyrö",
          "url": "/src/assets/img/Pirkanmaa/Hämeenkyrö.png",
          "alt": ""
        },
        {
          "municipality": "Ikaalinen",
          "url": "/src/assets/img/Pirkanmaa/Ikaalinen.png",
          "alt": ""
        },
        {
          "municipality": "Juupajoki",
          "url": "/src/assets/img/Pirkanmaa/Juupajoki.png",
          "alt": ""
        },
        {
          "municipality": "Kangasala",
          "url": "/src/assets/img/Pirkanmaa/Kangasala.png",
          "alt": ""
        },
        {
          "municipality": "Karkku",
          "url": "/src/assets/img/Pirkanmaa/Karkku.png",
          "alt": ""
        },
        {
          "municipality": "Kihniö",
          "url": "/src/assets/img/Pirkanmaa/Kihniö.png",
          "alt": ""
        },
        {
          "municipality": "Kuhmoinen",
          "url": "/src/assets/img/Pirkanmaa/Kuhmoinen.png",
          "alt": ""
        },
        {
          "municipality": "Lempäälä",
          "url": "/src/assets/img/Pirkanmaa/Lempäälä.png",
          "alt": ""
        },
        {
          "municipality": "Luopioinen",
          "url": "/src/assets/img/Pirkanmaa/Luopioinen.png",
          "alt": ""
        },
        {
          "municipality": "Nokia",
          "url": "/src/assets/img/Pirkanmaa/Nokia.png",
          "alt": ""
        },
        {
          "municipality": "Orivesi",
          "url": "/src/assets/img/Pirkanmaa/Orivesi.png",
          "alt": ""
        },
        {
          "municipality": "Parkano",
          "url": "/src/assets/img/Pirkanmaa/Parkano.png",
          "alt": ""
        },
        {
          "municipality": "Pirkkala",
          "url": "/src/assets/img/Pirkanmaa/Pirkkala.png",
          "alt": ""
        },
        {
          "municipality": "Punkalaidun",
          "url": "/src/assets/img/Pirkanmaa/Punkalaidun.png",
          "alt": ""
        },
        {
          "municipality": "Ruovesi",
          "url": "/src/assets/img/Pirkanmaa/Ruovesi.png",
          "alt": ""
        },
        {
          "municipality": "Tampere",
          "url": "/src/assets/img/Pirkanmaa/Tampere.png",
          "alt": ""
        },
        {
          "municipality": "Urjala",
          "url": "/src/assets/img/Pirkanmaa/Urjala.png",
          "alt": ""
        },
        {
          "municipality": "Valkeakoski",
          "url": "/src/assets/img/Pirkanmaa/Valkeakoski.png",
          "alt": ""
        },
        {
          "municipality": "Vesilahti",
          "url": "/src/assets/img/Pirkanmaa/Vesilahti.png",
          "alt": ""
        },
        {
          "municipality": "Vilppula",
          "url": "/src/assets/img/Pirkanmaa/Vilppula.png",
          "alt": ""
        },
        {
          "municipality": "Virrat",
          "url": "/src/assets/img/Pirkanmaa/Virrat.png",
          "alt": ""
        },
        {
          "municipality": "Ylöjärvi",
          "url": "/src/assets/img/Pirkanmaa/Ylöjärvi.png",
          "alt": ""
        }
      ]
    },
    {
      "name": "Pohjanmaa",
      "img": "Pohjanmaa",
      "src": "/src/assets/img/Pohjanmaa/Pohjanmaa.png",
      "alt": "",
      "location": "/src/assets/img/Pohjanmaa/pohjanmaa-location.png",
      "locationAlt": "",
      "images": [
        {
          "municipality": "Kaskinen",
          "url": "/src/assets/img/Pohjanmaa/Kaskinen.png",
          "alt": ""
        },
        {
          "municipality": "Korsnäs",
          "url": "/src/assets/img/Pohjanmaa/Korsnäs.png",
          "alt": ""
        },
        {
          "municipality": "Kristiinankaupunki",
          "url": "/src/assets/img/Pohjanmaa/Kristiinankaupunki.png",
          "alt": ""
        },
        {
          "municipality": "Kruunupyy",
          "url": "/src/assets/img/Pohjanmaa/Kruunupyy.png",
          "alt": ""
        },
        {
          "municipality": "Laihia",
          "url": "/src/assets/img/Pohjanmaa/Laihia.png",
          "alt": ""
        },
        {
          "municipality": "Luoto",
          "url": "/src/assets/img/Pohjanmaa/Luoto.png",
          "alt": ""
        },
        {
          "municipality": "Maalahti",
          "url": "/src/assets/img/Pohjanmaa/Maalahti.png",
          "alt": ""
        },
        {
          "municipality": "Mustasaari",
          "url": "/src/assets/img/Pohjanmaa/Mustasaari.png",
          "alt": ""
        },
        {
          "municipality": "Närpiö",
          "url": "/src/assets/img/Pohjanmaa/Närpiö.png",
          "alt": ""
        },
        {
          "municipality": "Pedersöre",
          "url": "/src/assets/img/Pohjanmaa/Pedersöre.png",
          "alt": ""
        },
        {
          "municipality": "Pietarsaari",
          "url": "/src/assets/img/Pohjanmaa/Pietarsaari.png",
          "alt": ""
        },
        {
          "municipality": "Uusikaarlepyy",
          "url": "/src/assets/img/Pohjanmaa/Uusikaarlepyy.png",
          "alt": ""
        },
        {
          "municipality": "Vaasa",
          "url": "/src/assets/img/Pohjanmaa/Vaasa.png",
          "alt": ""
        },
        {
          "municipality": "Vöyri-Maksamaa",
          "url": "/src/assets/img/Pohjanmaa/Vöyri-Maksamaa.png",
          "alt": ""
        }
      ]
    },
    {
      "name": "Pohjois-Karjala",
      "img": "Pohjois-Karjala",
      "src": "/src/assets/img/Pohjois-Karjala/Pohjois-Karjala.png",
      "alt": "",
      "location": "/src/assets/img/Pohjois-Karjala/pohjois-karjala-location.png",
      "locationAlt": "",
      "images": [
        {
          "municipality": "Heinävesi",
          "url": "/src/assets/img/Pohjois-Karjala/Heinävesi.png",
          "alt": ""
        },
        {
          "municipality": "Ilomantsi",
          "url": "/src/assets/img/Pohjois-Karjala/Ilomantsi.png",
          "alt": ""
        },
        {
          "municipality": "Joensuu",
          "url": "/src/assets/img/Pohjois-Karjala/Joensuu.png",
          "alt": ""
        },
        {
          "municipality": "Juuka",
          "url": "/src/assets/img/Pohjois-Karjala/Juuka.png",
          "alt": ""
        },
        {
          "municipality": "Kitee",
          "url": "/src/assets/img/Pohjois-Karjala/Kitee.png",
          "alt": ""
        },
        {
          "municipality": "Kontiolahti",
          "url": "/src/assets/img/Pohjois-Karjala/Kontiolahti.png",
          "alt": ""
        },
        {
          "municipality": "Lieksa",
          "url": "/src/assets/img/Pohjois-Karjala/Lieksa.png",
          "alt": ""
        },
        {
          "municipality": "Liperi",
          "url": "/src/assets/img/Pohjois-Karjala/Liperi.png",
          "alt": ""
        },
        {
          "municipality": "Nurmes",
          "url": "/src/assets/img/Pohjois-Karjala/Nurmes.png",
          "alt": ""
        },
        {
          "municipality": "Outokumpu",
          "url": "/src/assets/img/Pohjois-Karjala/Outokumpu.png",
          "alt": ""
        },
        {
          "municipality": "Polvijärvi",
          "url": "/src/assets/img/Pohjois-Karjala/Polvijärvi.png",
          "alt": ""
        },
        {
          "municipality": "Rääkkylä",
          "url": "/src/assets/img/Pohjois-Karjala/Rääkkylä.png",
          "alt": ""
        },
        {
          "municipality": "Tohmajärvi",
          "url": "/src/assets/img/Pohjois-Karjala/Tohmajärvi.png",
          "alt": ""
        }
      ]
    },
    {
      "name": "Pohjois-Pohjanmaa",
      "img": "Pohjois-Pohjanmaa",
      "src": "/src/assets/img/Pohjois-Pohjanmaa/Pohjois-Pohjanmaa.png",
      "alt": "",
      "location": "/src/assets/img/Pohjois-Pohjanmaa/pohjois-pohjanmaa-location.png",
      "locationAlt": "",
      "images": [
        {
          "municipality": "Alavieska",
          "url": "/src/assets/img/Pohjois-Pohjanmaa/Alavieska.png",
          "alt": ""
        },
        {
          "municipality": "Haapajärvi",
          "url": "/src/assets/img/Pohjois-Pohjanmaa/Haapajärvi.png",
          "alt": ""
        },
        {
          "municipality": "Haapavesi",
          "url": "/src/assets/img/Pohjois-Pohjanmaa/Haapavesi.png",
          "alt": ""
        },
        {
          "municipality": "Hailuoto",
          "url": "/src/assets/img/Pohjois-Pohjanmaa/Hailuoto.png",
          "alt": ""
        },
        {
          "municipality": "Himanka",
          "url": "/src/assets/img/Pohjois-Pohjanmaa/Himanka.png",
          "alt": ""
        },
        {
          "municipality": "Kärsämäki",
          "url": "/src/assets/img/Pohjois-Pohjanmaa/Kärsämäki.png",
          "alt": ""
        },
        {
          "municipality": "Kempele",
          "url": "/src/assets/img/Pohjois-Pohjanmaa/Kempele.png",
          "alt": ""
        },
        {
          "municipality": "Kuivaniemi",
          "url": "/src/assets/img/Pohjois-Pohjanmaa/Kuivaniemi.png",
          "alt": ""
        },
        {
          "municipality": "Kuusamo",
          "url": "/src/assets/img/Pohjois-Pohjanmaa/Kuusamo.png",
          "alt": ""
        },
        {
          "municipality": "Liminka",
          "url": "/src/assets/img/Pohjois-Pohjanmaa/Liminka.png",
          "alt": ""
        },
        {
          "municipality": "Lumijoki",
          "url": "/src/assets/img/Pohjois-Pohjanmaa/Lumijoki.png",
          "alt": ""
        },
        {
          "municipality": "Merijarvi",
          "url": "/src/assets/img/Pohjois-Pohjanmaa/Merijarvi.png",
          "alt": ""
        },
        {
          "municipality": "Muhos",
          "url": "/src/assets/img/Pohjois-Pohjanmaa/Muhos.png",
          "alt": ""
        },
        {
          "municipality": "Nivala",
          "url": "/src/assets/img/Pohjois-Pohjanmaa/Nivala.png",
          "alt": ""
        },
        {
          "municipality": "Oulainen",
          "url": "/src/assets/img/Pohjois-Pohjanmaa/Oulainen.png",
          "alt": ""
        },
        {
          "municipality": "Oulu",
          "url": "/src/assets/img/Pohjois-Pohjanmaa/Oulu.png",
          "alt": ""
        },
        {
          "municipality": "Pudasjarvi",
          "url": "/src/assets/img/Pohjois-Pohjanmaa/Pudasjarvi.png",
          "alt": ""
        },
        {
          "municipality": "Pyhäjärvi",
          "url": "/src/assets/img/Pohjois-Pohjanmaa/Pyhäjärvi.png",
          "alt": ""
        },
        {
          "municipality": "Pyhäjoki",
          "url": "/src/assets/img/Pohjois-Pohjanmaa/Pyhäjoki.png",
          "alt": ""
        },
        {
          "municipality": "Pyhäntä",
          "url": "/src/assets/img/Pohjois-Pohjanmaa/Pyhäntä.png",
          "alt": ""
        },
        {
          "municipality": "Raahe",
          "url": "/src/assets/img/Pohjois-Pohjanmaa/Raahe.png",
          "alt": ""
        },
        {
          "municipality": "Reisjärvi",
          "url": "/src/assets/img/Pohjois-Pohjanmaa/Reisjärvi.png",
          "alt": ""
        },
        {
          "municipality": "Sievi",
          "url": "/src/assets/img/Pohjois-Pohjanmaa/Sievi.png",
          "alt": ""
        },
        {
          "municipality": "Siikajoki",
          "url": "/src/assets/img/Pohjois-Pohjanmaa/Siikajoki.png",
          "alt": ""
        },
        {
          "municipality": "Siikalatva",
          "url": "/src/assets/img/Pohjois-Pohjanmaa/Siikalatva.png",
          "alt": ""
        },
        {
          "municipality": "Taivalkoski",
          "url": "/src/assets/img/Pohjois-Pohjanmaa/Taivalkoski.png",
          "alt": ""
        },
        {
          "municipality": "Tyrnävä",
          "url": "/src/assets/img/Pohjois-Pohjanmaa/Tyrnävä.png",
          "alt": ""
        },
        {
          "municipality": "Utajärvi",
          "url": "/src/assets/img/Pohjois-Pohjanmaa/Utajärvi.png",
          "alt": ""
        },
        {
          "municipality": "Vaala",
          "url": "/src/assets/img/Pohjois-Pohjanmaa/Vaala.png",
          "alt": ""
        },
        {
          "municipality": "Ylivieska",
          "url": "/src/assets/img/Pohjois-Pohjanmaa/Ylivieska.png",
          "alt": ""
        }
      ]
    },
    {
      "name": "Pohjois-Savo",
      "img": "Pohjois-Savo",
      "src": "/src/assets/img/Pohjois-Savo/Pohjois-Savo.png",
      "alt": "",
      "location": "/src/assets/img/Pohjois-Savo/pohjois-savo-location.png",
      "locationAlt": "",
      "images": [
        {
          "municipality": "Iisalmi",
          "url": "/src/assets/img/Pohjois-Savo/Iisalmi.png",
          "alt": ""
        },
        {
          "municipality": "Joroinen",
          "url": "/src/assets/img/Pohjois-Savo/Joroinen.png",
          "alt": ""
        },
        {
          "municipality": "Kaavi",
          "url": "/src/assets/img/Pohjois-Savo/Kaavi.png",
          "alt": ""
        },
        {
          "municipality": "Keitele",
          "url": "/src/assets/img/Pohjois-Savo/Keitele.png",
          "alt": ""
        },
        {
          "municipality": "Kiuruvesi",
          "url": "/src/assets/img/Pohjois-Savo/Kiuruvesi.png",
          "alt": ""
        },
        {
          "municipality": "Kuopio",
          "url": "/src/assets/img/Pohjois-Savo/Kuopio.png",
          "alt": ""
        },
        {
          "municipality": "Lapinlahti",
          "url": "/src/assets/img/Pohjois-Savo/Lapinlahti.png",
          "alt": ""
        },
        {
          "municipality": "Leppävirta",
          "url": "/src/assets/img/Pohjois-Savo/Leppävirta.png",
          "alt": ""
        },
        {
          "municipality": "Pielavesi",
          "url": "/src/assets/img/Pohjois-Savo/Pielavesi.png",
          "alt": ""
        },
        {
          "municipality": "Rautalampi",
          "url": "/src/assets/img/Pohjois-Savo/Rautalampi.png",
          "alt": ""
        },
        {
          "municipality": "Rautavaara",
          "url": "/src/assets/img/Pohjois-Savo/Rautavaara.png",
          "alt": ""
        },
        {
          "municipality": "Siilinjärvi",
          "url": "/src/assets/img/Pohjois-Savo/Siilinjärvi.png",
          "alt": ""
        },
        {
          "municipality": "Sonkajärvi",
          "url": "/src/assets/img/Pohjois-Savo/Sonkajärvi.png",
          "alt": ""
        },
        {
          "municipality": "Suonenjoki",
          "url": "/src/assets/img/Pohjois-Savo/Suonenjoki.png",
          "alt": ""
        },
        {
          "municipality": "Tuusniemi",
          "url": "/src/assets/img/Pohjois-Savo/Tuusniemi.png",
          "alt": ""
        },
        {
          "municipality": "Varkaus",
          "url": "/src/assets/img/Pohjois-Savo/Varkaus.png",
          "alt": ""
        },
        {
          "municipality": "Vesanto",
          "url": "/src/assets/img/Pohjois-Savo/Vesanto.png",
          "alt": ""
        },
        {
          "municipality": "Vieremä",
          "url": "/src/assets/img/Pohjois-Savo/Vieremä.png",
          "alt": ""
        }
      ]
    },
    {
      "name": "Satakunta",
      "img": "Satakunta",
      "src": "/src/assets/img/Satakunta/Satakunta.png",
      "alt": "",
      "location": "/src/assets/img/Satakunta/satakunta-location.png",
      "locationAlt": "",
      "images": [
        {
          "municipality": "Eura",
          "url": "/src/assets/img/Satakunta/Eura.png",
          "alt": ""
        },
        {
          "municipality": "Harjavalta",
          "url": "/src/assets/img/Satakunta/Harjavalta.png",
          "alt": ""
        },
        {
          "municipality": "Huittisten",
          "url": "/src/assets/img/Satakunta/Huittisten.png",
          "alt": ""
        },
        {
          "municipality": "Jämijärvi",
          "url": "/src/assets/img/Satakunta/Jämijärvi.png",
          "alt": ""
        },
        {
          "municipality": "Kankaanpää",
          "url": "/src/assets/img/Satakunta/Kankaanpää.png",
          "alt": ""
        },
        {
          "municipality": "Karvia",
          "url": "/src/assets/img/Satakunta/Karvia.png",
          "alt": ""
        },
        {
          "municipality": "Kokemäki",
          "url": "/src/assets/img/Satakunta/Kokemäki.png",
          "alt": ""
        },
        {
          "municipality": "Köyliö",
          "url": "/src/assets/img/Satakunta/Köyliö.png",
          "alt": ""
        },
        {
          "municipality": "Luvia",
          "url": "/src/assets/img/Satakunta/Luvia.png",
          "alt": ""
        },
        {
          "municipality": "Merikarvia",
          "url": "/src/assets/img/Satakunta/Merikarvia.png",
          "alt": ""
        },
        {
          "municipality": "Nakkila",
          "url": "/src/assets/img/Satakunta/Nakkila.png",
          "alt": ""
        },
        {
          "municipality": "Pomarkku",
          "url": "/src/assets/img/Satakunta/Pomarkku.png",
          "alt": ""
        },
        {
          "municipality": "Pori",
          "url": "/src/assets/img/Satakunta/Pori.png",
          "alt": ""
        },
        {
          "municipality": "Rauma",
          "url": "/src/assets/img/Satakunta/Rauma.png",
          "alt": ""
        },
        {
          "municipality": "Siikainen",
          "url": "/src/assets/img/Satakunta/Siikainen.png",
          "alt": ""
        },
        {
          "municipality": "Ulvila",
          "url": "/src/assets/img/Satakunta/Ulvila.png",
          "alt": ""
        }
      ]
    },
    {
      "name": "Uudenmaa",
      "img": "Uusimaa",
      "src": "/src/assets/img/Uudenmaa/Uusimaa.png",
      "alt": "",
      "location": "/src/assets/img/Uudenmaa/uusimaa-location.png",
      "locationAlt": "",
      "images": [
        {
          "municipality": "Askola",
          "url": "/src/assets/img/Uudenmaa/Askola.png",
          "alt": ""
        },
        {
          "municipality": "Espoo",
          "url": "/src/assets/img/Uudenmaa/Espoo.png",
          "alt": ""
        },
        {
          "municipality": "Hanko",
          "url": "/src/assets/img/Uudenmaa/Hanko.png",
          "alt": ""
        },
        {
          "municipality": "Helsinki",
          "url": "/src/assets/img/Uudenmaa/Helsinki.png",
          "alt": ""
        },
        {
          "municipality": "Hyvinkaa",
          "url": "/src/assets/img/Uudenmaa/Hyvinkaa.png",
          "alt": ""
        },
        {
          "municipality": "Inkoo",
          "url": "/src/assets/img/Uudenmaa/Inkoo.png",
          "alt": ""
        },
        {
          "municipality": "Jarvenpaa",
          "url": "/src/assets/img/Uudenmaa/Jarvenpaa.png",
          "alt": ""
        },
        {
          "municipality": "Karkkila",
          "url": "/src/assets/img/Uudenmaa/Karkkila.png",
          "alt": ""
        },
        {
          "municipality": "Kauniainen",
          "url": "/src/assets/img/Uudenmaa/Kauniainen.png",
          "alt": ""
        },
        {
          "municipality": "Kerava",
          "url": "/src/assets/img/Uudenmaa/Kerava.png",
          "alt": ""
        },
        {
          "municipality": "Kirkkonummi",
          "url": "/src/assets/img/Uudenmaa/Kirkkonummi.png",
          "alt": ""
        },
        {
          "municipality": "Lapinjärvi",
          "url": "/src/assets/img/Uudenmaa/Lapinjärvi.png",
          "alt": ""
        },
        {
          "municipality": "Lohja",
          "url": "/src/assets/img/Uudenmaa/Lohja.png",
          "alt": ""
        },
        {
          "municipality": "Loviisa",
          "url": "/src/assets/img/Uudenmaa/Loviisa.png",
          "alt": ""
        },
        {
          "municipality": "Mäntsälä",
          "url": "/src/assets/img/Uudenmaa/Mäntsälä.png",
          "alt": ""
        },
        {
          "municipality": "Nurmijarvi",
          "url": "/src/assets/img/Uudenmaa/Nurmijarvi.png",
          "alt": ""
        },
        {
          "municipality": "Pornainen",
          "url": "/src/assets/img/Uudenmaa/Pornainen.png",
          "alt": ""
        },
        {
          "municipality": "Porvoo",
          "url": "/src/assets/img/Uudenmaa/Porvoo.png",
          "alt": ""
        },
        {
          "municipality": "Pukkila",
          "url": "/src/assets/img/Uudenmaa/Pukkila.png",
          "alt": ""
        },
        {
          "municipality": "Raasepori",
          "url": "/src/assets/img/Uudenmaa/Raasepori.png",
          "alt": ""
        },
        {
          "municipality": "Sipoo",
          "url": "/src/assets/img/Uudenmaa/Sipoo.png",
          "alt": ""
        },
        {
          "municipality": "Siuntio",
          "url": "/src/assets/img/Uudenmaa/Siuntio.png",
          "alt": ""
        },
        {
          "municipality": "Tuusula",
          "url": "/src/assets/img/Uudenmaa/Tuusula.png",
          "alt": ""
        },
        {
          "municipality": "Vantaa",
          "url": "/src/assets/img/Uudenmaa/Vantaa.png",
          "alt": ""
        },
        {
          "municipality": "Vihti",
          "url": "/src/assets/img/Uudenmaa/Vihti.png",
          "alt": ""
        }
      ]
    },
    {
      "name": "Varsinais-Suomi",
      "img": "Varsinais-Suomi",
      "src": "/src/assets/img/Varsinais-Suomi/Varsinais-Suomi.png",
      "alt": "",
      "location": "/src/assets/img/Varsinais-Suomi/varsinais-suomi-location.png",
      "locationAlt": "",
      "images": [
        {
          "municipality": "Askainen",
          "url": "/src/assets/img/Varsinais-Suomi/Askainen.png",
          "alt": ""
        },
        {
          "municipality": "Aura",
          "url": "/src/assets/img/Varsinais-Suomi/Aura.png",
          "alt": ""
        },
        {
          "municipality": "Dragsfjärd",
          "url": "/src/assets/img/Varsinais-Suomi/Dragsfjärd.png",
          "alt": ""
        },
        {
          "municipality": "Halikko",
          "url": "/src/assets/img/Varsinais-Suomi/Halikko.png",
          "alt": ""
        },
        {
          "municipality": "Koski",
          "url": "/src/assets/img/Varsinais-Suomi/Koski.png",
          "alt": ""
        },
        {
          "municipality": "Kustavi",
          "url": "/src/assets/img/Varsinais-Suomi/Kustavi.png",
          "alt": ""
        },
        {
          "municipality": "Laitila",
          "url": "/src/assets/img/Varsinais-Suomi/Laitila.png",
          "alt": ""
        },
        {
          "municipality": "Lieto",
          "url": "/src/assets/img/Varsinais-Suomi/Lieto.png",
          "alt": ""
        },
        {
          "municipality": "Loimaa",
          "url": "/src/assets/img/Varsinais-Suomi/Loimaa.png",
          "alt": ""
        },
        {
          "municipality": "Marttila",
          "url": "/src/assets/img/Varsinais-Suomi/Marttila.png",
          "alt": ""
        },
        {
          "municipality": "Mynämäki",
          "url": "/src/assets/img/Varsinais-Suomi/Mynämäki.png",
          "alt": ""
        },
        {
          "municipality": "Naantali",
          "url": "/src/assets/img/Varsinais-Suomi/Naantali.png",
          "alt": ""
        },
        {
          "municipality": "Nagu",
          "url": "/src/assets/img/Varsinais-Suomi/Nagu.png",
          "alt": ""
        },
        {
          "municipality": "Nousiainen",
          "url": "/src/assets/img/Varsinais-Suomi/Nousiainen.png",
          "alt": ""
        },
        {
          "municipality": "Oripää",
          "url": "/src/assets/img/Varsinais-Suomi/Oripää.png",
          "alt": ""
        },
        {
          "municipality": "Paimio",
          "url": "/src/assets/img/Varsinais-Suomi/Paimio.png",
          "alt": ""
        },
        {
          "municipality": "Piikkiö",
          "url": "/src/assets/img/Varsinais-Suomi/Piikkiö.png",
          "alt": ""
        },
        {
          "municipality": "Pöytyä",
          "url": "/src/assets/img/Varsinais-Suomi/Pöytyä.png",
          "alt": ""
        },
        {
          "municipality": "Pyhäranta",
          "url": "/src/assets/img/Varsinais-Suomi/Pyhäranta.png",
          "alt": ""
        },
        {
          "municipality": "Raisio",
          "url": "/src/assets/img/Varsinais-Suomi/Raisio.png",
          "alt": ""
        },
        {
          "municipality": "Sauvo",
          "url": "/src/assets/img/Varsinais-Suomi/Sauvo.png",
          "alt": ""
        },
        {
          "municipality": "Somero",
          "url": "/src/assets/img/Varsinais-Suomi/Somero.png",
          "alt": ""
        },
        {
          "municipality": "Taivassalo",
          "url": "/src/assets/img/Varsinais-Suomi/Taivassalo.png",
          "alt": ""
        },
        {
          "municipality": "Turku",
          "url": "/src/assets/img/Varsinais-Suomi/Turku.png",
          "alt": ""
        },
        {
          "municipality": "Uusikaupunki",
          "url": "/src/assets/img/Varsinais-Suomi/Uusikaupunki.png",
          "alt": ""
        },
        {
          "municipality": "Vahto",
          "url": "/src/assets/img/Varsinais-Suomi/Vahto.png",
          "alt": ""
        },
        {
          "municipality": "Vehmaa",
          "url": "/src/assets/img/Varsinais-Suomi/Vehmaa.png",
          "alt": ""
        }
      ]
    }
  ]
}